places=[{"shelter":"Alachua Country Humane Society","adress":"4205 NW 6th St, Gainesville, FL 32609","phoneNumber":"(352)373-5855","latitude":29.692431,"longitude":-82.331487},
{"shelter":"Plenty Of Pit Bulls","adress":"4119 NW 16th Blvd, Gainesville, FL 32605","phoneNumber":"Adoption viewings at PetSmart on select weekends.","latitude":29.673058,"longitude":-82.386857},
{"shelter":"Plenty Of Pit Bulls","adress":"6869 W Newberry Rd, Gainesville, FL 32605","phoneNumber":"Adoption viewings at Petco on select weekends.","latitude":29.657155,"longitude":-82.41565},
{"shelter":"Paws On Parole/Paws Unleased","adress":"500 NW 60th St #F, Gainesville, FL 32607","phoneNumber":"(352)264-681 Adoption viewings at Earth Pets Natural Pet Market on select weekends.","latitude":29.657435,"longitude":-82.407127},
{"shelter":"Gainesville Pet Rescue","adress":"5403 SW Archer Rd, Gainesville, FL 32608","phoneNumber":"(352)692-4773","latitude":29.608837,"longitude":-82.400835},
{"shelter":"Helping Hands Pet Rescue","adress":"3736 Archer Rd, Gainesville, FL 32608","phoneNumber":"Adoption viewings at PetSmart on select weekends.","latitude":29.623004,"longitude":-82.380492},
{"shelter":"Haile's Angels","adress":"5231 SW 91st Dr, Gainesville, FL 32608","phoneNumber":"(352)505-0302","latitude":29.605394,"longitude":-82.438496},
{"shelter":"Alachua County Animal Services","adress":"3400 NE 53rd Ave, Gainesville, FL 32609","phoneNumber":"(352)264-6870","latitude":29.704103,"longitude":-82.281661},
{"shelter":"Pupp Hill Farm Animal Rescue","adress":"3736 Archer Rd, Gainesville, FL 32608","phoneNumber":"(352)478-1444 Adoption viewings at PetSmart on select weekends.","latitude":29.623004,"longitude":-82.380492},
{"shelter":"Second Chance Rescue & Rehoming","adress":"500 NW 60th St #F, Gainesville, FL 32607","phoneNumber":"Adoption viewings at Earth Pets Natural Pet Market on select weekends.","latitude":29.657435,"longitude":-82.407127}]
